[
  {
    "id": "azteca",
    "name": "Estadio Azteca",
    "city": "Mexico City",
    "country": "Mexico",
    "elevation_m": 2200,
    "grass_type": "natural",
    "grass_label": "天然草",
    "grass_warning": false,
    "climate_zone": "高原亚热带",
    "avg_temp_june_c": 26,
    "avg_humidity_june_pct": 45,
    "extreme_conditions": ["high_altitude"],
    "coordinates": {"lat": 19.3029, "lng": -99.1505}
  },
  {
    "id": "att",
    "name": "AT&T Stadium",
    "city": "Dallas",
    "country": "United States",
    "elevation_m": 131,
    "grass_type": "temporary_natural",
    "grass_label": "临时加铺天然草",
    "grass_warning": true,
    "climate_zone": "副热带湿润",
    "avg_temp_june_c": 33,
    "avg_humidity_june_pct": 65,
    "extreme_conditions": ["high_temp", "high_humidity", "temporary_grass"],
    "coordinates": {"lat": 32.7473, "lng": -97.0945}
  },
  {
    "id": "metlife",
    "name": "MetLife Stadium",
    "city": "New Jersey",
    "country": "United States",
    "elevation_m": 3,
    "grass_type": "temporary_natural",
    "grass_label": "临时加铺天然草",
    "grass_warning": true,
    "climate_zone": "温带湿润",
    "avg_temp_june_c": 27,
    "avg_humidity_june_pct": 70,
    "extreme_conditions": ["high_humidity", "temporary_grass"],
    "coordinates": {"lat": 40.8136, "lng": -74.0745}
  },
  {
    "id": "sofi",
    "name": "SoFi Stadium",
    "city": "Los Angeles",
    "country": "United States",
    "elevation_m": 32,
    "grass_type": "artificial",
    "grass_label": "人工草皮",
    "grass_warning": true,
    "climate_zone": "地中海型",
    "avg_temp_june_c": 22,
    "avg_humidity_june_pct": 65,
    "extreme_conditions": ["artificial_turf"],
    "coordinates": {"lat": 33.9535, "lng": -118.3390}
  },
  {
    "id": "levis",
    "name": "Levi's Stadium",
    "city": "Santa Clara",
    "country": "United States",
    "elevation_m": 6,
    "grass_type": "natural",
    "grass_label": "天然草",
    "grass_warning": false,
    "climate_zone": "地中海型",
    "avg_temp_june_c": 23,
    "avg_humidity_june_pct": 60,
    "extreme_conditions": [],
    "coordinates": {"lat": 37.4036, "lng": -121.9700}
  },
  {
    "id": "lumen",
    "name": "Lumen Field",
    "city": "Seattle",
    "country": "United States",
    "elevation_m": 56,
    "grass_type": "artificial",
    "grass_label": "人工草皮",
    "grass_warning": true,
    "climate_zone": "温带海洋性",
    "avg_temp_june_c": 18,
    "avg_humidity_june_pct": 70,
    "extreme_conditions": ["artificial_turf", "cool"],
    "coordinates": {"lat": 47.5952, "lng": -122.3316}
  },
  {
    "id": "mercedes_benz",
    "name": "Mercedes-Benz Stadium",
    "city": "Atlanta",
    "country": "United States",
    "elevation_m": 320,
    "grass_type": "artificial",
    "grass_label": "人工草皮",
    "grass_warning": true,
    "climate_zone": "副热带湿润",
    "avg_temp_june_c": 30,
    "avg_humidity_june_pct": 72,
    "extreme_conditions": ["high_temp", "high_humidity", "artificial_turf"],
    "coordinates": {"lat": 33.7555, "lng": -84.4010}
  },
  {
    "id": "nrg",
    "name": "NRG Stadium",
    "city": "Houston",
    "country": "United States",
    "elevation_m": 13,
    "grass_type": "artificial",
    "grass_label": "人工草皮",
    "grass_warning": true,
    "climate_zone": "副热带湿润",
    "avg_temp_june_c": 32,
    "avg_humidity_june_pct": 75,
    "extreme_conditions": ["high_temp", "high_humidity", "artificial_turf"],
    "coordinates": {"lat": 29.6847, "lng": -95.4107}
  },
  {
    "id": "arrowhead",
    "name": "Arrowhead Stadium",
    "city": "Kansas City",
    "country": "United States",
    "elevation_m": 277,
    "grass_type": "natural",
    "grass_label": "天然草",
    "grass_warning": false,
    "climate_zone": "温带大陆性",
    "avg_temp_june_c": 27,
    "avg_humidity_june_pct": 68,
    "extreme_conditions": ["high_humidity"],
    "coordinates": {"lat": 39.0489, "lng": -94.4840}
  },
  {
    "id": "gillette",
    "name": "Gillette Stadium",
    "city": "Foxborough",
    "country": "United States",
    "elevation_m": 78,
    "grass_type": "temporary_natural",
    "grass_label": "临时加铺天然草",
    "grass_warning": true,
    "climate_zone": "温带湿润",
    "avg_temp_june_c": 22,
    "avg_humidity_june_pct": 68,
    "extreme_conditions": ["temporary_grass"],
    "coordinates": {"lat": 42.0909, "lng": -71.2643}
  },
  {
    "id": "hard_rock",
    "name": "Hard Rock Stadium",
    "city": "Miami",
    "country": "United States",
    "elevation_m": 2,
    "grass_type": "natural",
    "grass_label": "天然草",
    "grass_warning": false,
    "climate_zone": "热带季风",
    "avg_temp_june_c": 31,
    "avg_humidity_june_pct": 78,
    "extreme_conditions": ["high_temp", "high_humidity"],
    "coordinates": {"lat": 25.9580, "lng": -80.2389}
  },
  {
    "id": "lincoln_financial",
    "name": "Lincoln Financial Field",
    "city": "Philadelphia",
    "country": "United States",
    "elevation_m": 12,
    "grass_type": "natural",
    "grass_label": "天然草",
    "grass_warning": false,
    "climate_zone": "温带湿润",
    "avg_temp_june_c": 25,
    "avg_humidity_june_pct": 65,
    "extreme_conditions": [],
    "coordinates": {"lat": 39.9008, "lng": -75.1675}
  },
  {
    "id": "bmo",
    "name": "BMO Field",
    "city": "Toronto",
    "country": "Canada",
    "elevation_m": 76,
    "grass_type": "hybrid",
    "grass_label": "混合草 (Hybrid)",
    "grass_warning": false,
    "climate_zone": "温带大陆性",
    "avg_temp_june_c": 24,
    "avg_humidity_june_pct": 72,
    "extreme_conditions": [],
    "coordinates": {"lat": 43.6329, "lng": -79.4186}
  },
  {
    "id": "bc_place",
    "name": "BC Place",
    "city": "Vancouver",
    "country": "Canada",
    "elevation_m": 3,
    "grass_type": "artificial",
    "grass_label": "人工草皮",
    "grass_warning": true,
    "climate_zone": "温带海洋性",
    "avg_temp_june_c": 17,
    "avg_humidity_june_pct": 72,
    "extreme_conditions": ["artificial_turf", "cool"],
    "coordinates": {"lat": 49.2767, "lng": -123.1120}
  },
  {
    "id": "estadio_bbva",
    "name": "Estadio BBVA",
    "city": "Monterrey",
    "country": "Mexico",
    "elevation_m": 537,
    "grass_type": "natural",
    "grass_label": "天然草",
    "grass_warning": false,
    "climate_zone": "半干旱高原",
    "avg_temp_june_c": 30,
    "avg_humidity_june_pct": 55,
    "extreme_conditions": ["moderate_altitude", "high_temp", "dry"],
    "coordinates": {"lat": 25.6693, "lng": -100.2453}
  },
  {
    "id": "estadio_akron",
    "name": "Estadio Akron",
    "city": "Guadalajara",
    "country": "Mexico",
    "elevation_m": 1566,
    "grass_type": "natural",
    "grass_label": "天然草",
    "grass_warning": false,
    "climate_zone": "高原亚热带",
    "avg_temp_june_c": 28,
    "avg_humidity_june_pct": 52,
    "extreme_conditions": ["high_altitude", "dry"],
    "coordinates": {"lat": 20.6818, "lng": -103.4627}
  }
]
